{
"type": "FeatureCollection",
"crs": { "type": "name", "properties": { "name": "urn:ogc:def:crs:OGC:1.3:CRS84" } },
                                                                                
"features": [
{ "type": "Feature", "properties": { "iata": "00M", "title": "宇都宮市上河内地域交流館　梵天の湯レストラン", "city": "Utsunomiya", "Tel": "028-674-8963", "Country": "Japan", "latitude": 36.682696, "longitude": 139.908869 }, "geometry": { "type": "Point", "coordinates": [ 139.908869399999986, 36.6826957 ] } },
{ "type": "Feature", "properties": { "iata": "00R", "title": "宇都宮東武ホテルグランデ", "city": "Utsunomiya", "Tel": "028-627-0111", "Country": "Japan", "latitude": 36.558871, "longitude": 139.884870 }, "geometry": { "type": "Point", "coordinates": [ 139.8848701, 36.5588708 ] } },
{ "type": "Feature", "properties": { "iata": "00V", "title": "にっさと", "city": "Utsunomiya", "Tel": "028-665-8800", "Country": "Japan", "latitude": 36.630460, "longitude": 139.832840 }, "geometry": { "type": "Point", "coordinates": [ 139.832840299999987, 36.63046 ] } },
{ "type": "Feature", "properties": { "iata": "01G", "title": "麦の楽園", "city": "Utsunomiya", "Tel": "028-665-8800", "Country": "Japan", "latitude": 36.630831, "longitude": 139.833033 }, "geometry": { "type": "Point", "coordinates": [ 139.833033199999988, 36.630831 ] } },
{ "type": "Feature", "properties": { "iata": "01J", "title": "居酒屋　京屋", "city": "Utsunomiya", "Tel": "028-621-0733", "Country": "Japan", "latitude": 36.558656, "longitude": 139.885779 }, "geometry": { "type": "Point", "coordinates": [ 139.8857791, 36.5586557 ] } },
{ "type": "Feature", "properties": { "iata": "01M", "title": "Hills Cafe", "city": "Utsunomiya", "Tel": "028-666-8785", "Country": "Japan", "latitude": 36.557219, "longitude": 139.885770 }, "geometry": { "type": "Point", "coordinates": [ 139.8857703, 36.5572189 ] } },
{ "type": "Feature", "properties": { "iata": "02A", "title": "ホテルニューイタヤ", "city": "Utsunomiya", "Tel": "028-635-5515", "Country": "Japan", "latitude": 36.556564, "longitude": 139.895614 }, "geometry": { "type": "Point", "coordinates": [ 139.8956136, 36.5565642 ] } },
{ "type": "Feature", "properties": { "iata": "02C", "title": "ホテル東日本宇都宮", "city": "Utsunomiya", "Tel": "028-643-5555", "Country": "Japan", "latitude": 36.572215, "longitude": 139.896830 }, "geometry": { "type": "Point", "coordinates": [ 139.8968299, 36.5722154 ] } },
{ "type": "Feature", "properties": { "iata": "02G", "title": "炭火焼肉レストランおおつか　宇都宮店", "city": "Utsunomiya", "Tel": "028-657-5529", "Country": "Japan", "latitude": 36.522135, "longitude": 139.925027 }, "geometry": { "type": "Point", "coordinates": [ 139.9250275, 36.5221354 ] } },
{ "type": "Feature", "properties": { "iata": "03D", "title": "レストラン　アンサンブル", "city": "Utsunomiya", "Tel": "028-684-6299", "Country": "Japan", "latitude": 36.522442, "longitude": 139.865757 }, "geometry": { "type": "Point", "coordinates": [ 139.865756800000014, 36.5224423 ] } },
{ "type": "Feature", "properties": { "iata": "04M", "title": "宮っぽらーめん すわ", "city": "Utsunomiya", "Tel": "028-601-7808", "Country": "Japan", "latitude": 36.585968, "longitude": 139.860302 }, "geometry": { "type": "Point", "coordinates": [ 139.8603019, 36.585968 ] } },
{ "type": "Feature", "properties": { "iata": "04Y", "title": "キッチンすえひろ", "city": "Utsunomiya", "Tel": "028-613-1370", "Country": "Japan", "latitude": 36.552282, "longitude": 139.931213 }, "geometry": { "type": "Point", "coordinates": [ 139.9312128, 36.5522821 ] } },
{ "type": "Feature", "properties": { "iata": "05C", "title": "和牛ステーキ 桜", "city": "Utsunomiya", "Tel": "028-664-3343", "Country": "Japan", "latitude": 36.549786, "longitude": 139.931247 }, "geometry": { "type": "Point", "coordinates": [ 139.9312467, 36.5497861 ] } },
{ "type": "Feature", "properties": { "iata": "05F", "title": "旨い焼肉 桜", "city": "Utsunomiya", "Tel": "028-662-7770", "Country": "Japan", "latitude": 36.552282, "longitude": 139.931633 }, "geometry": { "type": "Point", "coordinates": [ 139.9316325, 36.5522821 ] } },
{ "type": "Feature", "properties": { "iata": "05U", "title": "ベルさくらの湯　お食事処さくら", "city": "Utsunomiya", "Tel": "028-623-1433", "Country": "Japan", "latitude": 36.553116, "longitude": 139.936519 }, "geometry": { "type": "Point", "coordinates": [ 139.9365194, 36.5531162 ] } },
{ "type": "Feature", "properties": { "iata": "06A", "title": "クーリ・ルージュ", "city": "Utsunomiya", "Tel": "028-678-8848", "Country": "Japan", "latitude": 36.627907, "longitude": 139.830777 }, "geometry": { "type": "Point", "coordinates": [ 139.8307773, 36.6279067 ] } },
{ "type": "Feature", "properties": { "iata": "06C", "title": "下野農園", "city": "Utsunomiya", "Tel": "028-678-6593", "Country": "Japan", "latitude": 36.568364, "longitude": 139.881181 }, "geometry": { "type": "Point", "coordinates": [ 139.88118080000001, 36.5683637 ] } },
{ "type": "Feature", "properties": { "iata": "06D", "title": "旬菜・創作ダイニング　スティルト", "city": "Utsunomiya", "Tel": "028-632-3233", "Country": "Japan", "latitude": 36.553804, "longitude": 139.889800 }, "geometry": { "type": "Point", "coordinates": [ 139.8897998, 36.5538036 ] } },
{ "type": "Feature", "properties": { "iata": "06M", "title": "ゆず庵", "city": "Utsunomiya", "Tel": "028-665-8800", "Country": "Japan", "latitude": 36.629683, "longitude": 139.832251 }, "geometry": { "type": "Point", "coordinates": [ 139.8322509, 36.6296831 ] } },
{ "type": "Feature", "properties": { "iata": "06N", "title": "そば処　くにもと", "city": "Utsunomiya", "Tel": "028-665-8841", "Country": "Japan", "latitude": 36.630485, "longitude": 139.833180 }, "geometry": { "type": "Point", "coordinates": [ 139.8331801, 36.6304852 ] } },
{ "type": "Feature", "properties": { "iata": "06U", "title": "食と酒　ダイニングステージ心", "city": "Utsunomiya", "Tel": "028-660-8198", "Country": "Japan", "latitude": 36.560883, "longitude": 139.924784 }, "geometry": { "type": "Point", "coordinates": [ 139.924784499999987, 36.5608829 ] } },
{ "type": "Feature", "properties": { "iata": "07C", "title": "スペイン風居酒屋　ゾロ", "city": "Utsunomiya", "Tel": "028-634-0002", "Country": "Japan", "latitude": 36.556939, "longitude": 139.890508 }, "geometry": { "type": "Point", "coordinates": [ 139.8905083, 36.5569389 ] } },
{ "type": "Feature", "properties": { "iata": "07F", "title": "八寸庵　花子", "city": "Utsunomiya", "Tel": "028-643-2535", "Country": "Japan", "latitude": 36.562380, "longitude": 139.895919 }, "geometry": { "type": "Point", "coordinates": [ 139.895919, 36.5623799 ] } },
{ "type": "Feature", "properties": { "iata": "07G", "title": "ワインダイニング・ル・プラン", "city": "Utsunomiya", "Tel": "028-633-4477", "Country": "Japan", "latitude": 36.557387, "longitude": 139.890006 }, "geometry": { "type": "Point", "coordinates": [ 139.8900061, 36.5573869 ] } },
{ "type": "Feature", "properties": { "iata": "07K", "title": "ダイニング蔵おしゃらく", "city": "Utsunomiya", "Tel": "028-638-0409", "Country": "Japan", "latitude": 36.555264, "longitude": 139.884940 }, "geometry": { "type": "Point", "coordinates": [ 139.8849397, 36.5552636 ] } },
{ "type": "Feature", "properties": { "iata": "08A", "title": "やっちゃ場食堂", "city": "Utsunomiya", "Tel": "028-632-2974", "Country": "Japan", "latitude": 36.552166, "longitude": 139.886039 }, "geometry": { "type": "Point", "coordinates": [ 139.8860386, 36.5521656 ] } },
{ "type": "Feature", "properties": { "iata": "08D", "title": "宇都宮市文化会館内食堂　カフェ＆ダイニング　サンフォルテ", "city": "Utsunomiya", "Tel": "028-635-6865", "Country": "Japan", "latitude": 36.543768, "longitude": 139.871481 }, "geometry": { "type": "Point", "coordinates": [ 139.871481100000011, 36.5437683 ] } },
{ "type": "Feature", "properties": { "iata": "08K", "title": "済生会宇都宮病院内レストラン　エムロード", "city": "Utsunomiya", "Tel": "028-626-5706", "Country": "Japan", "latitude": 36.575940, "longitude": 139.900349 }, "geometry": { "type": "Point", "coordinates": [ 139.9003492, 36.5759398 ] } },
{ "type": "Feature", "properties": { "iata": "08M", "title": "旬魚美酒　養老乃瀧 雀宮店", "city": "Utsunomiya", "Tel": "028-653-4649", "Country": "Japan", "latitude": 36.481911, "longitude": 139.868755 }, "geometry": { "type": "Point", "coordinates": [ 139.8687548, 36.4819112 ] } },
{ "type": "Feature", "properties": { "iata": "09A", "title": "そば仁", "city": "Utsunomiya", "Tel": "028-661-0863", "Country": "Japan", "latitude": 36.577486, "longitude": 139.963989 }, "geometry": { "type": "Point", "coordinates": [ 139.963989, 36.5774855 ] } },
{ "type": "Feature", "properties": { "iata": "09J", "title": "優食キッチン", "city": "Utsunomiya", "Tel": "028-908-5082", "Country": "Japan", "latitude": 36.545788, "longitude": 139.919319 }, "geometry": { "type": "Point", "coordinates": [ 139.919319, 36.5457882 ] } },
{ "type": "Feature", "properties": { "iata": "09K", "title": "和（なごみ）　たけい", "city": "Utsunomiya", "Tel": "028-656-1361", "Country": "Japan", "latitude": 36.500314, "longitude": 139.947509 }, "geometry": { "type": "Point", "coordinates": [ 139.9475094, 36.5003142 ] } },
{ "type": "Feature", "properties": { "iata": "09M", "title": "宇都宮屋台横丁　おだいどころ　華乃庄", "city": "Utsunomiya", "Tel": "080-6521-9013", "Country": "Japan", "latitude": 36.557105, "longitude": 139.889986 }, "geometry": { "type": "Point", "coordinates": [ 139.889986099999987, 36.5571053 ] } },
{ "type": "Feature", "properties": { "iata": "09W", "title": "宇都宮屋台横丁　カブト揚げ　よ～いどんっ！", "city": "Utsunomiya", "Tel": "080-4332-8855", "Country": "Japan", "latitude": 36.557112, "longitude": 139.889824 }, "geometry": { "type": "Point", "coordinates": [ 139.88982390000001, 36.5571119 ] } },
{ "type": "Feature", "properties": { "iata": "0A3", "title": "宇都宮屋台横丁　串揚げ・サラダ工房　いっぴん", "city": "Utsunomiya", "Tel": "080-1548-2346", "Country": "Japan", "latitude": 36.556994, "longitude": 139.889974 }, "geometry": { "type": "Point", "coordinates": [ 139.8899739, 36.5569941 ] } },
{ "type": "Feature", "properties": { "iata": "0A8", "title": "宇都宮屋台横丁　焼酎炉辺焼　火あぶり", "city": "Utsunomiya", "Tel": "080-1127-8208", "Country": "Japan", "latitude": 36.556990, "longitude": 139.889813 }, "geometry": { "type": "Point", "coordinates": [ 139.8898132, 36.5569897 ] } },
{ "type": "Feature", "properties": { "iata": "0A9", "title": "宇都宮屋台横丁　台湾小調　酔愛菜", "city": "Utsunomiya", "Tel": "080-6557-6999", "Country": "Japan", "latitude": 36.556876, "longitude": 139.889974 }, "geometry": { "type": "Point", "coordinates": [ 139.8899739, 36.5568763 ] } },
{ "type": "Feature", "properties": { "iata": "0AK", "title": "宇都宮屋台横丁　鉄板料理・手羽・からあげ　あたしっ亭", "city": "Utsunomiya", "Tel": "080-1368-7761", "Country": "Japan", "latitude": 36.556876, "longitude": 139.889813 }, "geometry": { "type": "Point", "coordinates": [ 139.8898132, 36.5568763 ] } },
{ "type": "Feature", "properties": { "iata": "0B1", "title": "宇都宮屋台横丁　ホルモン焼と魚介焼き　七輪", "city": "Utsunomiya", "Tel": "080-5201-1116", "Country": "Japan", "latitude": 36.556758, "longitude": 139.889974 }, "geometry": { "type": "Point", "coordinates": [ 139.8899739, 36.5567584 ] } },
{ "type": "Feature", "properties": { "iata": "0B4", "title": "宇都宮屋台横丁　みそだれやきとり　かんちゃん", "city": "Utsunomiya", "Tel": "080-2061-3536", "Country": "Japan", "latitude": 36.556772, "longitude": 139.889818 }, "geometry": { "type": "Point", "coordinates": [ 139.8898185, 36.5567715 ] } }
]
}
