{
"type": "FeatureCollection",
"crs": { "type": "name", "properties": { "name": "urn:ogc:def:crs:OGC:1.3:CRS84" } },
                                                                                
"features": [
{ "type": "Feature", "properties": { "iata": "00M", "title": "＠miya（アットミヤ）", "city": "江野町2-11　宮カフェ1階", "Tel": "028-666-8938", "country": "Japan", "latitude": 36.557358, "longitude": 139.885765 }, "geometry": { "type": "Point", "coordinates": [ 139.8857649, 36.5573585 ] } },
{ "type": "Feature", "properties": { "iata": "00R", "title": "天谷商店", "city": "上戸祭1丁目1-51", "Tel": "028-622-4828", "country": "Japan", "latitude": 36.582079, "longitude": 139.868570 }, "geometry": { "type": "Point", "coordinates": [ 139.868569900000011, 36.5820792 ] } },
{ "type": "Feature", "properties": { "iata": "00V", "title": "えきの市場", "city": "川向町1-23", "Tel": "028-627-8560", "country": "Japan", "latitude": 36.557542, "longitude": 139.901497 }, "geometry": { "type": "Point", "coordinates": [ 139.9014971, 36.5575418 ] } },
{ "type": "Feature", "properties": { "iata": "01G", "title": "大塚次郎商店", "city": "上大曽町357-4", "Tel": "028-624-8712", "country": "Japan", "latitude": 36.572368, "longitude": 139.892093 }, "geometry": { "type": "Point", "coordinates": [ 139.892093100000011, 36.5723681 ] } },
{ "type": "Feature", "properties": { "iata": "01J", "title": "コープ越戸店", "city": "越戸3丁目12-9", "Tel": "028-663-4411", "country": "Japan", "latitude": 36.566467, "longitude": 139.928498 }, "geometry": { "type": "Point", "coordinates": [ 139.9284979, 36.5664673 ] } },
{ "type": "Feature", "properties": { "iata": null, "title": "コープ鶴田店", "city": "鶴田町861", "Tel": "028-601-8661", "country": "Japan", "latitude": 36.556948, "longitude": 139.858507 }, "geometry": { "type": "Point", "coordinates": [ 139.8585069, 36.5569483 ] } },
{ "type": "Feature", "properties": { "iata": null, "title": "スーパーいまむら", "city": "西川田5丁目4-6", "Tel": "028-645-2777", "country": "Japan", "latitude": 36.510874, "longitude": 139.854027 }, "geometry": { "type": "Point", "coordinates": [ 139.854027300000013, 36.5108742 ] } },
{ "type": "Feature", "properties": { "iata": null, "title": "スーパーオータニ 江曽島店", "city": "江曽島町1062-1", "Tel": "028-645-0521", "country": "Japan", "latitude": 36.525220, "longitude": 139.874919 }, "geometry": { "type": "Point", "coordinates": [ 139.8749192, 36.5252202 ] } },
{ "type": "Feature", "properties": { "iata": null, "title": "スーパーオータニ 雀宮店", "city": "南町12-1", "Tel": "028-653-2621", "country": "Japan", "latitude": 36.483357, "longitude": 139.868980 }, "geometry": { "type": "Point", "coordinates": [ 139.868979700000011, 36.4833572 ] } },
{ "type": "Feature", "properties": { "iata": null, "title": "スーパーオータニ 宝井店", "city": "下田原町3230-29", "Tel": "028-672-2231", "country": "Japan", "latitude": 36.630418, "longitude": 139.922858 }, "geometry": { "type": "Point", "coordinates": [ 139.9228584, 36.6304178 ] } },
{ "type": "Feature", "properties": { "iata": null, "title": "スーパーオータニ 野沢店", "city": "野沢町40-1", "Tel": "028-665-4131", "country": "Japan", "latitude": 36.602311, "longitude": 139.861121 }, "geometry": { "type": "Point", "coordinates": [ 139.8611213, 36.6023108 ] } },
{ "type": "Feature", "properties": { "iata": null, "title": "フードオアシスオータニ 御幸ヶ原店", "city": "御幸ヶ原町91-13", "Tel": "028-661-6521", "country": "Japan", "latitude": 36.586297, "longitude": 139.925616 }, "geometry": { "type": "Point", "coordinates": [ 139.9256158, 36.5862966 ] } },
{ "type": "Feature", "properties": { "iata": null, "title": "菅山商店", "city": "中戸祭1丁目7-9", "Tel": "028-622-6801", "country": "Japan", "latitude": 36.575947, "longitude": 139.872776 }, "geometry": { "type": "Point", "coordinates": [ 139.8727762, 36.5759471 ] } },
{ "type": "Feature", "properties": { "iata": null, "title": "鈴功商店", "city": "田野町785-3", "Tel": "028-652-0662", "country": "Japan", "latitude": 36.592799, "longitude": 139.803289 }, "geometry": { "type": "Point", "coordinates": [ 139.803288900000013, 36.5927985 ] } },
{ "type": "Feature", "properties": { "iata": null, "title": "東武宇都宮百貨店", "city": "宮園町5-4", "Tel": "028-651-5050", "country": "Japan", "latitude": 36.556905, "longitude": 139.883798 }, "geometry": { "type": "Point", "coordinates": [ 139.883798399999989, 36.5569046 ] } },
{ "type": "Feature", "properties": { "iata": null, "title": "フードオアシスオータニ 戸祭店", "city": "上戸祭町548-1", "Tel": "028-643-3121", "country": "Japan", "latitude": 36.583644, "longitude": 139.871675 }, "geometry": { "type": "Point", "coordinates": [ 139.8716748, 36.5836435 ] } },
{ "type": "Feature", "properties": { "iata": null, "title": "フードオアシスオータニ 宇都宮駅東店", "city": "元今泉4丁目1-14", "Tel": "028-635-6201", "country": "Japan", "latitude": 36.559085, "longitude": 139.909059 }, "geometry": { "type": "Point", "coordinates": [ 139.9090586, 36.5590853 ] } },
{ "type": "Feature", "properties": { "iata": null, "title": "フードオアシスオータニ 岡本店", "city": "下岡本町4278", "Tel": "028-673-3555", "country": "Japan", "latitude": 36.595415, "longitude": 139.950316 }, "geometry": { "type": "Point", "coordinates": [ 139.9503163, 36.5954147 ] } },
{ "type": "Feature", "properties": { "iata": null, "title": "フードオアシスオータニ 五代店", "city": "五代1丁目3-8", "Tel": "028-688-3388", "country": "Japan", "latitude": 36.488588, "longitude": 139.864458 }, "geometry": { "type": "Point", "coordinates": [ 139.8644577, 36.488588 ] } },
{ "type": "Feature", "properties": { "iata": null, "title": "フードオアシスオータニ 鶴田店", "city": "鶴田町513-4", "Tel": "028-636-6261", "country": "Japan", "latitude": 36.547795, "longitude": 139.862381 }, "geometry": { "type": "Point", "coordinates": [ 139.8623805, 36.5477954 ] } },
{ "type": "Feature", "properties": { "iata": null, "title": "フードオアシスオータニ 平松店", "city": "平松本町1141-2", "Tel": "028-614-3911", "country": "Japan", "latitude": 36.538479, "longitude": 139.908252 }, "geometry": { "type": "Point", "coordinates": [ 139.9082515, 36.5384791 ] } },
{ "type": "Feature", "properties": { "iata": null, "title": "フードオアシスオータニ 明保店", "city": "下荒針町3473-5", "Tel": "028-649-1388", "country": "Japan", "latitude": 36.561199, "longitude": 139.842475 }, "geometry": { "type": "Point", "coordinates": [ 139.8424747, 36.5611993 ] } },
{ "type": "Feature", "properties": { "iata": null, "title": "フレッシュフーズ・ヤマト", "city": "氷室町1788-13", "Tel": "028-667-1416", "country": "Japan", "latitude": 36.542419, "longitude": 139.999239 }, "geometry": { "type": "Point", "coordinates": [ 139.999239100000011, 36.5424188 ] } },
{ "type": "Feature", "properties": { "iata": null, "title": "松屋食料品店", "city": "戸祭2丁目8-10", "Tel": "028-622-8314", "country": "Japan", "latitude": 36.569401, "longitude": 139.868188 }, "geometry": { "type": "Point", "coordinates": [ 139.8681882, 36.5694014 ] } },
{ "type": "Feature", "properties": { "iata": null, "title": "ヤオコー", "city": "平出町4065-6", "Tel": "028-662-3868", "country": "Japan", "latitude": 36.567022, "longitude": 139.940442 }, "geometry": { "type": "Point", "coordinates": [ 139.9404417, 36.5670216 ] } },
{ "type": "Feature", "properties": { "iata": null, "title": "八百藤商店", "city": "江野町2-12", "Tel": "028-633-6873", "country": "Japan", "latitude": 36.557263, "longitude": 139.885540 }, "geometry": { "type": "Point", "coordinates": [ 139.8855399, 36.5572625 ] } },
{ "type": "Feature", "properties": { "iata": null, "title": "ビックミート山久　鶴田町店", "city": "鶴田町3083", "Tel": "028-638-0101", "country": "Japan", "latitude": 36.547154, "longitude": 139.863962 }, "geometry": { "type": "Point", "coordinates": [ 139.8639617, 36.5471543 ] } },
{ "type": "Feature", "properties": { "iata": null, "title": "優食倶楽部", "city": "峰町318-6", "Tel": "028-908-5081", "country": "Japan", "latitude": 36.545862, "longitude": 139.919217 }, "geometry": { "type": "Point", "coordinates": [ 139.9192172, 36.5458624 ] } },
{ "type": "Feature", "properties": { "iata": null, "title": "アピタ 宇都宮店", "city": "江曽島本町22-7", "Tel": "028-684-2211", "country": "Japan", "latitude": 36.528603, "longitude": 139.870118 }, "geometry": { "type": "Point", "coordinates": [ 139.8701185, 36.5286029 ] } },
{ "type": "Feature", "properties": { "iata": null, "title": "島崎商店", "city": "大谷町1306", "Tel": "028-652-0020", "country": "Japan", "latitude": 36.588515, "longitude": 139.823522 }, "geometry": { "type": "Point", "coordinates": [ 139.8235221, 36.5885147 ] } },
{ "type": "Feature", "properties": { "iata": null, "title": "食楽いきいき", "city": "柳田町554-1", "Tel": "028-663-8314", "country": "Japan", "latitude": 36.566174, "longitude": 139.960901 }, "geometry": { "type": "Point", "coordinates": [ 139.9609007, 36.5661742 ] } },
{ "type": "Feature", "properties": { "iata": null, "title": "フードオアシスオータニ みずほの店", "city": "西刑部町桑島台2450-4", "Tel": "028-657-8661", "country": "Japan", "latitude": 36.507503, "longitude": 139.928005 }, "geometry": { "type": "Point", "coordinates": [ 139.9280049, 36.5075026 ] } },
{ "type": "Feature", "properties": { "iata": null, "title": "ろまんちっく村市場・情報センター あおぞら館", "city": "新里町丙254　道の駅ろまんちっく村内", "Tel": "028-665-8800", "country": "Japan", "latitude": 36.631001, "longitude": 139.833880 }, "geometry": { "type": "Point", "coordinates": [ 139.8338798, 36.6310012 ] } },
{ "type": "Feature", "properties": { "iata": null, "title": "八百半商店", "city": "簗瀬町1910-1", "Tel": "028-636-3569", "country": "Japan", "latitude": 36.542842, "longitude": 139.891066 }, "geometry": { "type": "Point", "coordinates": [ 139.891066099999989, 36.5428415 ] } },
{ "type": "Feature", "properties": { "iata": null, "title": "ヨークベニマル　石井店", "city": "石井町3351-1", "Tel": "028-657-7149", "country": "Japan", "latitude": 36.526014, "longitude": 139.925414 }, "geometry": { "type": "Point", "coordinates": [ 139.9254139, 36.5260139 ] } },
{ "type": "Feature", "properties": { "iata": null, "title": "ヨークベニマル　泉が丘店", "city": "泉が丘6丁目1-44", "Tel": "028-683-5051", "country": "Japan", "latitude": 36.565278, "longitude": 139.922444 }, "geometry": { "type": "Point", "coordinates": [ 139.922444399999989, 36.5652778 ] } },
{ "type": "Feature", "properties": { "iata": null, "title": "ヨークベニマル　西川田店", "city": "西川田町920-2", "Tel": "028-615-2149", "country": "Japan", "latitude": 36.522487, "longitude": 139.854492 }, "geometry": { "type": "Point", "coordinates": [ 139.854492099999987, 36.5224871 ] } },
{ "type": "Feature", "properties": { "iata": null, "title": "ヨークベニマル　御幸ヶ原店", "city": "御幸ヶ原町50-1", "Tel": "028-660-4900", "country": "Japan", "latitude": 36.589287, "longitude": 139.931159 }, "geometry": { "type": "Point", "coordinates": [ 139.931159400000013, 36.5892866 ] } },
{ "type": "Feature", "properties": { "iata": null, "title": "ヨークベニマル　簗瀬店", "city": "城東1丁目8-13", "Tel": "028-651-3821", "country": "Japan", "latitude": 36.546453, "longitude": 139.904044 }, "geometry": { "type": "Point", "coordinates": [ 139.9040444, 36.5464528 ] } },
{ "type": "Feature", "properties": { "iata": null, "title": "ヨークベニマル　若松原店", "city": "北若松原1丁目13-15", "Tel": "028-645-4911", "country": "Japan", "latitude": 36.504190, "longitude": 139.869218 }, "geometry": { "type": "Point", "coordinates": [ 139.869218100000012, 36.5041899 ] } },
{ "type": "Feature", "properties": { "iata": null, "title": "ヨークベニマル　細谷店", "city": "細谷町375-2", "Tel": "028-650-2449", "country": "Japan", "latitude": 36.585762, "longitude": 139.856834 }, "geometry": { "type": "Point", "coordinates": [ 139.856833599999987, 36.5857616 ] } }
]
}
